Town,District,Province,Latitude,Longitude,Date,Year,Total Deaths
Wana,South Waziristan,FATA,32.307446,69.56543,6/19/2004,2004,7
"Toorikhel, Mirali",North Waziristan,FATA,32.987644,70.261345,05/08/2005,2005,2
Haisori,North Waziristan,FATA,33.010391,70.043335,11/05/2005,2005,8
Patasi Adda,North Waziristan,FATA,32.09686,70.2657,12/01/2005,2005,5
Damadola,Bajaur,FATA,34.801682,71.472588,01/06/2006,2006,18
"Chenagai, six miles north of Khar",Bajaur,FATA,34.841988,71.49765,10/30/2006,2006,82
"Salamat Keley, Zamazola",South Waziristan,FATA,32.844982,69.56543,1/16/2007,2007,30
"Danda Saidgai, 15 km north of Miram Shah",North Waziristan,FATA,33.109947,70.068054,4/27/2007,2007,4
"Mami Rogha, 26 miles west of Miram Shah",North Waziristan,FATA,32.991386,70.291901,6/19/2007,2007,34
Outside Miram Shah,North Waziristan,FATA,32.992538,70.098953,11/02/2007,2007,9
Near Mir Ali,North Waziristan,FATA,32.99398,70.237999,1/29/2008,2008,13
Azam Warzak,South Waziristan,FATA,32.308025,69.409561,2/28/2008,2008,13
"Dhook Pir Bagh, near Wana",South Waziristan,FATA,32.316151,69.462433,3/16/2008,2008,20
Damadola,Bajaur,FATA,34.809856,71.531296,5/14/2008,2008,16
Makeen,South Waziristan,FATA,32.622604,69.829102,6/14/2008,2008,1
Zeralita in the Azam Warsak region,South Waziristan,FATA,32.288296,69.439774,7/28/2008,2008,6
"Bhagar, 22 miles west of Wana",South Waziristan,FATA,32.311508,69.320984,08/12/2008,2008,12
Wana,South Waziristan,FATA,32.301064,69.598389,8/20/2008,2008,10
Ganghikhel area,South Waziristan,FATA,32.3028,69.5805,8/27/2008,2008,0
Korzai region near Wana,South Waziristan,FATA,32.326595,69.521484,8/30/2008,2008,6
"Tappi, Miram Shah",North Waziristan,FATA,33.01442,70.061188,8/31/2008,2008,8
Char Khel,North Waziristan,FATA,33.016724,69.848328,09/04/2008,2008,7
Gurwak,North Waziristan,FATA,33.046658,69.539337,09/05/2008,2008,12
"Danda Darpa Khel, outside Miram Shah",North Waziristan,FATA,33.01442,70.085907,09/08/2008,2008,25
Tol Khel on the outskirts of Miram Shah,North Waziristan,FATA,33.004059,70.074921,09/12/2008,2008,12
"Baghar Cheena region, 55km west of Wana",South Waziristan,FATA,32.500496,69.283905,9/17/2008,2008,7
"Khusali Toorikhel, near Mir Ali",North Waziristan,FATA,32.97699,70.303574,10/01/2008,2008,5
"Mohammad Khel, near Datta Khel",North Waziristan,FATA,32.998299,69.723358,10/03/2008,2008,21
Datta Khel,North Waziristan,FATA,33.001755,69.704132,10/03/2008,2008,3
"Tati, near Miram Shah",North Waziristan,FATA,32.994843,70.167618,10/09/2008,2008,9
Just outside Miram Shah,North Waziristan,FATA,32.99369,70.092087,10/11/2008,2008,5
"Taparghai, near Saam in the Ladha region",South Waziristan,FATA,32.540447,69.854507,10/16/2008,2008,4
"Danda Darpa Khel, outside Miram Shah",North Waziristan,FATA,33.023632,70.074577,10/23/2008,2008,10
Shakai region north of Wana,South Waziristan,FATA,32.552601,69.609375,10/26/2008,2008,20
Mir Ali,North Waziristan,FATA,32.9767,70.269241,10/31/2008,2008,15
Wana,South Waziristan,FATA,32.29874,69.54071,10/31/2008,2008,12
"Kumsham, 22 miles south of Miram Shah",North Waziristan,FATA,32.751476,70.072174,11/07/2008,2008,14
Garyom,North Waziristan,FATA,32.707577,69.873047,11/14/2008,2008,13
Jani Khel,Khyber Pakhtunkhwa,Khyber Pakhtunkhwa,32.799973,70.489655,11/19/2008,2008,5
Ali Khel region just outside of Miram Shah,North Waziristan,FATA,32.981308,70.067368,11/22/2008,2008,5
"Chashma, a village on the outskirts of Miram Shah",North Waziristan,FATA,32.98822,70.046425,11/29/2008,2008,3
"Katira in Khushal Torikhel area, Mir Ali",North Waziristan,FATA,32.9315,70.3052,12/05/2008,2008,4
Azam Warzak,South Waziristan,FATA,32.31673,69.384155,12/11/2008,2008,7
Tapi Tool region near Miram Shah,North Waziristan,FATA,32.983322,70.08728,12/15/2008,2008,3
Azam Warzak near Wana,South Waziristan,FATA,32.30526109,69.45419308,12/22/2008,2008,3
"Ghwakhwa, Wana",South Waziristan,FATA,32.296421,69.498825,12/22/2008,2008,5
"Karikot, near Wana",South Waziristan,FATA,32.319633,69.501572,01/01/2009,2009,3
Ladha,South Waziristan,FATA,32.539288,69.875793,01/02/2009,2009,4
"Zharki (Zera), near Mir Ali",North Waziristan,FATA,32.9538,70.262459,1/23/2009,2009,10
"Dilfaraz or Ghangi Khel, near Wana",South Waziristan,FATA,32.270878,69.589462,1/23/2009,2009,10
"Near Narsikhel, Ladha",South Waziristan,FATA,32.520184,69.868927,2/14/2009,2009,30
"Sur Pul, near Parachinar",Kurram,FATA,33.683212,70.290527,2/16/2009,2009,31
"Sararogha, near Wana",South Waziristan,FATA,32.49065,70.004883,03/01/2009,2009,12
Barjo,Kurram,FATA,33.808819,70.279541,03/12/2009,2009,24
"Jani Khel, Bannu",Khyber Pakhtunkhwa,Khyber Pakhtunkhwa,32.797665,70.496521,3/15/2009,2009,5
Makeen,South Waziristan,FATA,32.616241,69.848328,3/25/2009,2009,7
"Sokhel, Mir Ali",North Waziristan,FATA,32.966618,70.32074,3/26/2009,2009,5
Khadezai,Orakzai,FATA,33.672928,70.911255,04/01/2009,2009,14
"Datta Khel, near Miram Shah",North Waziristan,FATA,32.984474,69.715805,04/04/2009,2009,15
Wana,South Waziristan,FATA,32.321957,69.586716,04/08/2009,2009,4
"Gangi Khel, outskirts of Wana",South Waziristan,FATA,32.281906,69.553757,4/19/2009,2009,8
"Kaniguram, near Wana",South Waziristan,FATA,32.520184,69.783783,4/29/2009,2009,6
"Tabbi Langar Khel, near Sarorogha",South Waziristan,FATA,32.479645,70.018616,05/09/2009,2009,20
"Sara Khwara, 25 km west of Wana",South Waziristan,FATA,32.298161,69.349136,05/12/2009,2009,10
"Khesoor, 18 miles east of Miram Shah",North Waziristan,FATA,33.005211,70.272675,5/16/2009,2009,40
"Mardar Algad, Ladha",South Waziristan,FATA,32.524815,69.883347,6/14/2009,2009,5
"Shah Alam, Birmal, near Wana",South Waziristan,FATA,32.288876,69.608688,6/18/2009,2009,11
"Raghzai area, near Wana",South Waziristan,FATA,32.334141,69.568176,6/18/2009,2009,9
"Neej Narai, outside Makeen",South Waziristan,FATA,32.609882,69.833221,6/23/2009,2009,6
Makeen,South Waziristan,FATA,32.622604,69.852448,6/23/2009,2009,80
Mantoi area,South Waziristan,FATA,32.592525,69.599075,07/03/2009,2009,10
"Zamarai Nairai, near Kokat Khel, 28 miles east of Wana",South Waziristan,FATA,32.285973,69.988403,07/03/2009,2009,35
"Jangara, Makeen",South Waziristan,FATA,32.623184,69.841461,07/07/2009,2009,16
"Laddha, Karwan Manza",South Waziristan,FATA,32.52771,69.855881,07/08/2009,2009,10
Karwan Manza,South Waziristan,FATA,32.52771,69.863434,07/08/2009,2009,40
Painda Khel,South Waziristan,FATA,32.320793,69.623795,07/10/2009,2009,5
"Gariwan, 19 miles south of Miram Shah",North Waziristan,FATA,32.704109,70.063934,7/17/2009,2009,5
Zangra village of Ladha,South Waziristan,FATA,32.582691,69.849014,08/05/2009,2009,12
"Kani Guram, four miles from Ladha",South Waziristan,FATA,32.524239,69.794769,08/11/2009,2009,14
"Darpa Khel, outside Miram Shah",North Waziristan,FATA,33.003483,70.031662,8/21/2009,2009,21
Tapar Ghai areain the Kanigram district,South Waziristan,FATA,32.509182,69.798889,8/27/2009,2009,8
"Machi Khel, near Mir Ali",North Waziristan,FATA,32.995419,70.31662,09/07/2009,2009,7
"Dargamandi village, 3 miles northwest of Miram Shah",North Waziristan,FATA,33.046082,70.019989,09/08/2009,2009,10
"Toori Khel, near Mir Ali",North Waziristan,FATA,32.959129,70.287094,9/14/2009,2009,6
Near Mir Ali,North Waziristan,FATA,32.97123,70.245895,9/24/2009,2009,12
Sararogha,South Waziristan,FATA,32.493546,70.023422,9/29/2009,2009,6
Danda Darpakhel,North Waziristan,FATA,32.997723,70.041962,9/29/2009,2009,7
"Norak, 12 miles east of Miram Shah",North Waziristan,FATA,32.989082,70.328293,9/30/2009,2009,9
Dandey Darpa Khel,North Waziristan,FATA,32.989658,70.030975,10/15/2009,2009,4
Spalaga,North Waziristan,FATA,32.8935,69.6955,10/21/2009,2009,4
Damadola Bajaur,Khyber Pakhtunkhwa,Khyber Pakhtunkhwa,34.818878,71.500397,10/24/2009,2009,24
"Norak, near Mir Ali",North Waziristan,FATA,33.0116,70.0557,11/05/2009,2009,4
"Shanakhora, 12 miles west of Miram Shah",North Waziristan,FATA,33.010967,69.831848,11/18/2009,2009,4
Palooseen Village in Mir Ali,North Waziristan,FATA,33.002331,70.290527,11/20/2009,2009,8
"Aspalga Village, 7 miles southeast of Miram Shah",North Waziristan,FATA,32.869205,70.133972,12/08/2009,2009,3
Deegan village,North Waziristan,FATA,32.821903,69.979477,12/17/2009,2009,14
"Godaivalla, in Datta Khel",North Waziristan,FATA,32.989082,69.693146,12/17/2009,2009,18
"Babrak Ziarat, near Wazgai village of Datta Khel Tehsil",North Waziristan,FATA,32.98505,69.739151,12/18/2009,2009,8
"Babar Raghzai area of the Saidgi village, 4 miles north of Miram Shah",North Waziristan,FATA,33.07716,70.069427,12/26/2009,2009,14
"Machi Khel, 20 km west of Miram Shah",North Waziristan,FATA,33.009815,69.808502,12/31/2009,2009,5
"Ghundikala village, 15 km east of Miram Shah, in Mir Ali Tehsil",North Waziristan,FATA,32.994267,70.207443,01/01/2010,2010,3
"Mosakki village, 25 km east of Miram Shah, in Mir Ali Tehsil",North Waziristan,FATA,32.997723,70.342026,01/03/2010,2010,2
Sanzali area of Datta Khel,North Waziristan,FATA,32.983898,69.75769,01/06/2010,2010,25
"Tapi Village, near Miram Shah",North Waziristan,FATA,33.003483,70.015182,01/08/2010,2010,8
Ismael Khel in Datta Khel region,North Waziristan,FATA,32.991962,69.730911,01/09/2010,2010,4
Shaktoi village in the Pasalkot region,North Waziristan,FATA,32.669147,70.156975,1/14/2010,2010,18
"Zanini Village, near Mir Ali",North Waziristan,FATA,32.940117,70.296021,1/15/2010,2010,5
"Bichi village, Mirkhwanai area, near Shaktoi",North Waziristan,FATA,32.667992,70.144958,1/15/2010,2010,6
"Nizba Village, Shaktoi region",South Waziristan,FATA,32.659031,70.150452,1/17/2010,2010,20
"Deegan, 18 miles west of Miram Shah",North Waziristan,FATA,32.972958,69.700012,1/19/2010,2010,6
"Muhammad Khel, Datta Khel",North Waziristan,FATA,33.001755,69.713058,1/29/2010,2010,15
"Toor Narai village, Datta Khel, 30km west of Miram Shah",North Waziristan,FATA,32.9989,69.9534,02/02/2010,2010,7
Pai Khel,North Waziristan,FATA,33.0023,69.8696,02/02/2010,2010,7
Muhammad Khel,North Waziristan,FATA,32.5725,69.5306,02/02/2010,2010,7
"Deegan, 18 miles west of Miram Shah",North Waziristan,FATA,32.976414,69.728165,02/02/2010,2010,8
Mir Ali,North Waziristan,FATA,32.963161,70.241776,2/14/2010,2010,9
"Tapi Village, 9 miles east of Miram Shah",North Waziristan,FATA,32.987354,70.280914,2/15/2010,2010,4
"Tabi Tolkhel, 3 miles from Khost border OR Tapi, 9 miles east of Miram Shah",North Waziristan,FATA,32.997723,70.18959,2/17/2010,2010,4
"Dandey Darpa Khel, near Miram Shah",North Waziristan,FATA,33.015572,70.052605,2/18/2010,2010,4
"Dargi Mandi, 2.5 miles north of Miram Shah",North Waziristan,FATA,33.042629,70.061188,2/24/2010,2010,14
Maley Khan Sirai area of Miram Shah,North Waziristan,FATA,33.005783,70.090027,03/08/2010,2010,5
"Mizar Madakhel, 25-31 miles west of Miram Shah",North Waziristan,FATA,32.997147,69.616241,03/10/2010,2010,21
"Datta Khel, 12 miles west of Miram Shah",North Waziristan,FATA,32.991386,69.742584,3/16/2010,2010,11
"Mada Khel, 25 miles west of Miram Shah",North Waziristan,FATA,32.995995,69.625854,3/17/2010,2010,6
"Hamzoni, 6 miles west of Miram Shah",North Waziristan,FATA,33.013271,69.938965,3/17/2010,2010,5
Lowari Mandi area of Datta Khel,North Waziristan,FATA,32.995995,69.682159,3/21/2010,2010,8
"Machis, outskirts of Miram Shah",North Waziristan,FATA,32.985626,70.054321,3/23/2010,2010,6
"Hurmaz, near Mir Ali",North Waziristan,FATA,32.96777,70.253448,3/28/2010,2010,4
"Tapi Village, 13 miles east of Miram Shah",North Waziristan,FATA,32.997147,70.302887,3/31/2010,2010,6
"Boya village, 12 miles west of Miram Shah",North Waziristan,FATA,33.024784,69.823608,04/12/2010,2010,13
"Ambur Shaga Village, 15 miles west of Miram Shah",North Waziristan,FATA,33.004059,69.752197,4/14/2010,2010,5
"Toorkhel, suburbs of Miram Shah",North Waziristan,FATA,32.998299,70.119553,4/16/2010,2010,6
"Machi Khel, 12 miles east of Miram Shah",North Waziristan,FATA,32.978718,70.327606,4/24/2010,2010,8
"Khushali Toorkhel, 15 miles east of Miram Shah",North Waziristan,FATA,32.972958,70.350952,4/26/2010,2010,6
"Marsi Khel, near Mir Ali",North Waziristan,FATA,32.990234,70.315933,05/03/2010,2010,6
"Inzarkas village, Datta Khel",North Waziristan,FATA,32.997147,69.672546,05/09/2010,2010,10
"Gorwek, near Afghan border",North Waziristan,FATA,32.994267,69.558563,05/11/2010,2010,10
"Doga area, Datta Khel",North Waziristan,FATA,32.995995,69.704819,05/11/2010,2010,14
"Ragha area, Tirah Valley",Khyber,Khyber Pakhtunkhwa,33.881817,70.85907,5/15/2010,2010,15
Asadabad village of Muhammad Khel area of Datta Khel,North Waziristan,FATA,32.989082,69.716492,5/21/2010,2010,12
"Mizai Nari, 38 km west of Wana",South Waziristan,FATA,32.292938,69.304504,5/28/2010,2010,12
"Khaddi village, nine miles east of Miram Shah",North Waziristan,FATA,32.97987,70.287094,06/10/2010,2010,3
"Datta Khel, 12 miles west of Miram Shah",North Waziristan,FATA,32.997147,69.656754,06/11/2010,2010,9
"Sokhel village, 16 miles east of Miram Shah",North Waziristan,FATA,32.981022,70.293274,6/19/2010,2010,16
"Khushali Khel, Mir Ali,",North Waziristan,FATA,32.974686,70.278168,6/26/2010,2010,3
"Tabbi Tolkhel, 4 km north of Miram Shah",North Waziristan,FATA,33.021908,70.072174,6/27/2010,2010,6
"Lamal village, near Karikot, 6 miles SW of Wana",South Waziristan,FATA,32.234295,69.530411,6/29/2010,2010,10
"Sheerani, Mada Khel",North Waziristan,FATA,32.995419,69.77211,7/15/2010,2010,14
"Dwasarak village, 25 miles west of Wana, near Angoor Adda",South Waziristan,FATA,32.45068,69.277039,7/24/2010,2010,18
Landikhel area of Sararogha,South Waziristan,FATA,32.49297,70.037155,7/25/2010,2010,4
"Tabbi Tolkhel, 4 km north of Miram Shah",North Waziristan,FATA,33.027664,70.069427,7/25/2010,2010,7
Shaktoi village in the Pasalkot region,South Waziristan,FATA,32.66597,70.161438,7/25/2010,2010,14
"Issori, 13 miles east of Miram Shah",North Waziristan,FATA,32.990234,70.31868,8/14/2010,2010,14
"Kutabkhel village, 3 km south of Miram Shah",North Waziristan,FATA,32.983898,70.059128,8/21/2010,2010,6
Derga Mandy,North Waziristan,FATA,33.0155,70.056,8/23/2010,2010,5
Danday Darpa Khel,North Waziristan,FATA,33.028816,70.046082,8/23/2010,2010,20
"Shahidano village, 62 miles southwest of Peshawar",Kurram,FATA,33.680923,70.41687,8/27/2010,2010,4
"Datta Khel, 12 miles west of Miram Shah",North Waziristan,FATA,32.994267,69.777603,09/03/2010,2010,7
Machis Factory area on outskirts of Miram Shah,North Waziristan,FATA,33.018452,70.098953,09/03/2010,2010,25
Datta Khel,North Waziristan,FATA,32.983898,69.751511,09/04/2010,2010,8
near Miramshah,North Waziristan,FATA,33.0047,70.0675,09/04/2010,2010,6
"Khar Qamar, a village in Datta Khel",North Waziristan,FATA,32.977566,69.711685,09/06/2010,2010,6
"Ambor Shaga on Dattakhel Road, near the border",North Waziristan,FATA,32.996571,69.526291,09/08/2010,2010,4
Dargha Mandi at Ghulam Khan Road area,North Waziristan,FATA,32.995419,70.015182,09/08/2010,2010,6
Danday Darpakhel,North Waziristan,FATA,33.027664,70.017242,09/08/2010,2010,10
Outskirts of Miram Shah,North Waziristan,FATA,33.008087,70.061874,09/09/2010,2010,6
Datta Khel,North Waziristan,FATA,32.986202,69.685593,09/12/2010,2010,6
"Bushnarai village, Shawal",North Waziristan,FATA,33.021908,69.656754,9/14/2010,2010,12
"Qutabkhel village, a southern suburb of Miranshah",North Waziristan,FATA,32.98505,70.076981,9/14/2010,2010,4
Payekhel village of Dattakhel district,North Waziristan,FATA,33.008663,69.76181,9/15/2010,2010,7
"Dargah Mandi, outskirts of Miram Shah",North Waziristan,FATA,33.02018,70.029602,9/15/2010,2010,14
"Deghan, Datta Khel,",North Waziristan,FATA,32.974972,69.686279,9/19/2010,2010,5
"Darazinda village, 25 miles northeast of Miram Shah",North Waziristan,FATA,33.070827,69.701385,9/20/2010,2010,9
"Azam Warsak, 6 miles NW of Wana",South Waziristan,FATA,32.344002,69.66568,9/21/2010,2010,7
"Khund, South Waziristan border with Afghanistan",South Waziristan,FATA,32.46806,69.300385,9/21/2010,2010,7
"Datta Khel, 12 miles west of Miram Shah",North Waziristan,FATA,32.987354,69.66774,9/25/2010,2010,4
"Tarmanu Road, 31 miles west of Miram Shah",North Waziristan,FATA,32.979294,69.664307,9/26/2010,2010,5
Lawara Mandi area of Datta Khel,North Waziristan,FATA,32.978718,69.6698,9/26/2010,2010,4
Sherani area of Datta Khel,North Waziristan,FATA,32.987354,69.66774,9/26/2010,2010,4
"Khush Hali, southeast of Miram Shah",North Waziristan,FATA,32.98505,70.014153,9/27/2010,2010,4
"Zeba village, west of Wana",South Waziristan,FATA,32.472694,69.274979,9/28/2010,2010,4
"Inzarkas village, Datta Khel",North Waziristan,FATA,32.990234,69.631348,10/02/2010,2010,9
"Asar village, Datta Khel",North Waziristan,FATA,32.98793,69.640961,10/02/2010,2010,10
Mir Ali,North Waziristan,FATA,32.981022,70.256882,10/04/2010,2010,12
Mir Ali,North Waziristan,FATA,32.966042,70.274734,10/06/2010,2010,5
Miram Shah,North Waziristan,FATA,33.012695,70.10788,10/06/2010,2010,6
"Khaisoori town, Mir Ali",North Waziristan,FATA,32.975838,70.261688,10/07/2010,2010,4
"Charkhel, in Datta Khel",North Waziristan,FATA,32.984188,69.696922,10/08/2010,2010,9
"Spin Wam refugee camp, outside Mir Ali",North Waziristan,FATA,32.99081,70.304604,10/10/2010,2010,8
"Inzarkas village, Datta Khel",North Waziristan,FATA,32.992538,69.654007,10/13/2010,2010,11
Aziz Khel,North Waziristan,FATA,32.970654,70.293961,10/15/2010,2010,6
"Machi Khel, near Mir Ali",North Waziristan,FATA,32.97987,70.232849,10/15/2010,2010,5
Sanzali area of Datta Khel,North Waziristan,FATA,32.976414,69.733658,10/18/2010,2010,7
Deegan area of Datta Khel,North Waziristan,FATA,32.997147,69.697952,10/27/2010,2010,4
"Spin Wam, near Mir Ali",North Waziristan,FATA,32.986778,70.315247,10/27/2010,2010,5
"Ismail Khel, in Datta Khel",North Waziristan,FATA,32.994843,69.726791,10/28/2010,2010,11
"Hyder Khel, near Mir Ali",North Waziristan,FATA,32.97382,70.312157,11/01/2010,2010,6
"Qutub Khel, near Miram Shah",North Waziristan,FATA,33.021332,70.013123,11/03/2010,2010,5
"Pai Khel village, in Datta Khel",North Waziristan,FATA,32.97987,69.643707,11/03/2010,2010,4
"Khaso Khel village, near Mir Ali",North Waziristan,FATA,32.962009,70.333786,11/03/2010,2010,4
"Moizer town, Datta Khel",North Waziristan,FATA,32.98217,69.627914,11/07/2010,2010,6
"Ghulam Khan, north of Miram Shah",North Waziristan,FATA,33.05817,70.080414,11/07/2010,2010,9
"Gulli Khel village, Ghulam Khan, 8 miles from Miram Shah",North Waziristan,FATA,33.027664,69.741898,11/11/2010,2010,7
"Ahmad Khel, 15 miles west of Miram Shah",North Waziristan,FATA,33.006935,69.820518,11/13/2010,2010,4
"Ghulam Khan, 20 km north of Miram Shah",North Waziristan,FATA,33.106499,70.053635,11/16/2010,2010,20
"Naurak, near Marsi Khel village, nine miles east of Miram Shah",North Waziristan,FATA,32.985626,70.342026,11/19/2010,2010,4
"Khaddi, 10 miles east of Miram Shah",North Waziristan,FATA,32.962585,70.276794,11/21/2010,2010,9
"Khushali, 15 miles east of Miram Shah",North Waziristan,FATA,32.97094,70.349403,11/22/2010,2010,6
"Pir Keley, six miles east of Miram Shah",North Waziristan,FATA,32.993114,70.196457,11/26/2010,2010,4
"Hasan Khel, 30 km east of Miram Shah",North Waziristan,FATA,32.984474,70.377045,11/28/2010,2010,4
"Khysore village, 20 miles east of Miram Shah",North Waziristan,FATA,32.983322,70.405884,12/06/2010,2010,7
"Khadar Khel, near Mir Ali",North Waziristan,FATA,32.972958,70.400391,12/10/2010,2010,4
"Spalga, nine miles south of Miram Shah",North Waziristan,FATA,33.033997,70.19989,12/14/2010,2010,4
Spin Drand area of the Tirah Valley,Khyber,Khyber Pakhtunkhwa,33.804256,70.736847,12/16/2010,2010,7
"Sippah village, near Spin Drand in the Tirah Valley",Khyber,Khyber Pakhtunkhwa,33.795128,70.768433,12/17/2010,2010,32
"Sandana, Tirah Valley",Khyber,Khyber Pakhtunkhwa,33.790562,70.823364,12/17/2010,2010,7
"Narai Baba, Tirah valley",Khyber,Khyber Pakhtunkhwa,33.756313,70.7547,12/17/2010,2010,15
"Shera Tala area, near Mir Ali",North Waziristan,FATA,32.957977,70.379791,12/27/2010,2010,21
"Machikhel, Mir Ali",North Waziristan,FATA,33.0291,70.2468,12/27/2010,2010,6
"Nawab village, in Ghulam Khan area",North Waziristan,FATA,33.016724,69.906006,12/28/2010,2010,10
"Ghulam Khan, 20 km north of Miram Shah",North Waziristan,FATA,33.029388,69.916992,12/28/2010,2010,8
"Ghulam Khan, 15km NW of Miram Shah",North Waziristan,FATA,33.037449,69.906006,12/31/2010,2010,8
"Mandi Khel, near Mir Ali",North Waziristan,FATA,33.02824,70.239716,01/01/2011,2011,9
"Ghoresti, near Mir Ali",North Waziristan,FATA,33.02824,70.236969,01/01/2011,2011,5
Boya village in Datta Khel,North Waziristan,FATA,32.957977,69.918365,01/01/2011,2011,4
"Ghar Laley, 22 miles west of Miram Shah",North Waziristan,FATA,32.997147,69.749451,01/07/2011,2011,5
"Haiderkhel, 15 miles east of Miram Shah",North Waziristan,FATA,33.009815,70.366058,01/12/2011,2011,4
"Asar village, 25 miles west of Miram Shah, Datta Khel",North Waziristan,FATA,33.004059,69.603882,1/18/2011,2011,5
"Doga Mada Khel, near Datta Khel",North Waziristan,FATA,32.994843,69.627228,1/23/2011,2011,4
"Doga Mada Khel, near Datta Khel",North Waziristan,FATA,32.99369,69.624481,1/23/2011,2011,3
"Mando Khel, 60km south of Miram Shah near Razmak",North Waziristan,FATA,32.691399,69.846954,1/23/2011,2011,6
"Kaza Panga village, 10 miles west of Wana",South Waziristan,FATA,32.313831,69.422607,2/20/2011,2011,8
"Spalga village, 12 miles south of Miram Shah",North Waziristan,FATA,33.040901,70.19989,2/21/2011,2011,8
"Mohammed Khel, in Danday Darpa Khel",North Waziristan,FATA,32.976414,69.643707,2/24/2011,2011,5
Ismailkhel,North Waziristan,FATA,32.968,69.69,03/08/2011,2011,5
"Landidog, 12 miles west of Wama",South Waziristan,FATA,32.314991,69.447327,03/08/2011,2011,5
"Spinwam village, Khaisor, 30 miles north of Miram Shah",North Waziristan,FATA,33.094994,70.276794,03/11/2011,2011,6
Ghorski,North Waziristan,FATA,33.1347,70.1649,03/11/2011,2011,10
"Azam Warsak, 12 miles west of Wana",South Waziristan,FATA,32.308025,69.43222,3/13/2011,2011,4
"Spalga village, 15km NE of Miram Shah",North Waziristan,FATA,33.050114,70.201263,3/13/2011,2011,6
"Malik Jashdar, 6 miles east of Miram Shah",North Waziristan,FATA,32.999451,70.3125,3/14/2011,2011,6
"Datta Khel, 15 miles west of Miram Shah",North Waziristan,FATA,33.001755,69.781036,3/16/2011,2011,6
"Datta Khel, 15 miles west of Miram Shah",North Waziristan,FATA,32.98793,69.763184,3/17/2011,2011,45
"Angoor Adda, Bhangar area",South Waziristan,FATA,32.512077,69.296265,4/13/2011,2011,6
"Spinwam village, Mir Ali",North Waziristan,FATA,33.091541,70.274734,4/22/2011,2011,29
Datta Khel,North Waziristan,FATA,33.012695,69.761124,05/06/2011,2011,18
"Baghar area, near Angoor Adda",South Waziristan,FATA,32.506866,69.300385,05/10/2011,2011,5
Datta Khel,North Waziristan,FATA,32.986778,69.697266,05/12/2011,2011,8
"Doga Madakhel, 40km west of Miram Shah, in Datta Khel",North Waziristan,FATA,33.007511,69.6698,5/13/2011,2011,5
Mir Ali,North Waziristan,FATA,32.996571,70.351639,5/16/2011,2011,6
Mir Ali,North Waziristan,FATA,32.995419,70.350266,5/16/2011,2011,6
"Tappi area, 10km east of Miram Shah",North Waziristan,FATA,33.009525,70.185814,5/20/2011,2011,6
"Machikhel, Mir Ali",North Waziristan,FATA,32.992538,70.221863,5/23/2011,2011,7
"Laman, in Ghwa Khwa and Karikot area, 20km south of Wana",South Waziristan,FATA,32.168636,69.576416,06/03/2011,2011,12
"Bray Nishtar, 30 miles from Wacha Dana, near North Waziristan border",South Waziristan,FATA,32.826519,69.587402,06/06/2011,2011,5
"Wana, South Waziristan",South Waziristan,FATA,32.346901,69.498138,06/06/2011,2011,23
Zawal Narai area of Shawal Tehsil,North Waziristan,FATA,32.932625,69.623108,06/08/2011,2011,23
Zawal Narai area of Shawal Tehsil,North Waziristan,FATA,32.9313,69.6248,06/08/2011,2011,4
Wana,South Waziristan,FATA,32.306866,69.56543,6/15/2011,2011,10
"Tapi, 10 km east of Miram Shah",North Waziristan,FATA,33.010967,70.180664,6/15/2011,2011,6
Khardand,Kurram,FATA,33.527657,70.285034,6/20/2011,2011,13
Mantoi,South Waziristan,FATA,32.708733,69.559937,6/27/2011,2011,21
Bray Nishtar,South Waziristan,FATA,32.6272,69.4453,6/27/2011,2011,12
Mir Ali,North Waziristan,FATA,33.006935,70.239716,07/05/2011,2011,4
"Gorwick, Datta Khel Town, 45 km west of Miram Shah",North Waziristan,FATA,32.9052,69.7488,07/11/2011,2011,25
"Malik Shahi village, Dremala/Bermal Tehsil, Shawal, near the border with North Waziristan and Paktika,",South Waziristan,FATA,32.6238,69.4968,07/12/2011,2011,13
"Bray Nishtar, Shawal area",North Waziristan,FATA,32.6138,69.5082,07/12/2011,2011,15
"Bray Nishtar, Shawal area",North Waziristan,FATA,32.6126,69.5078,07/12/2011,2011,8
Neway Adda Village,North Waziristan,FATA,32.9052,69.7488,07/12/2011,2011,1
"Azam Warsak, 12 miles west of Wana",South Waziristan,FATA,32.311508,69.418488,08/01/2011,2011,6
Miram Shah,North Waziristan,FATA,33.009815,70.098267,08/02/2011,2011,4
Miram Shah,North Waziristan,FATA,33.002907,70.094147,08/10/2011,2011,23
Miram Shah,North Waziristan,FATA,33.006359,70.067368,8/16/2011,2011,4
Shin Warsak,South Waziristan,FATA,32.280746,69.519424,8/19/2011,2011,4
"Norak, near Mir Ali",North Waziristan,FATA,32.963451,70.31044,8/22/2011,2011,11
"Hisokhel, near Mir Ali",North Waziristan,FATA,32.972382,70.289841,09/11/2011,2011,5
"Khushali area, near Mir Ali",North Waziristan,FATA,33.021332,70.305634,9/23/2011,2011,6
"Azam Warsak, 12 miles west of Wana",South Waziristan,FATA,32.327759,69.43634,9/27/2011,2011,4
Near Angor Adda and Afghan border,South Waziristan,FATA,32.509762,69.314117,9/30/2011,2011,4
"Angoor Adda, Bhangar area",South Waziristan,FATA,32.4825,69.2709,10/13/2011,2011,4
Close to Dande Darpa Khel,North Waziristan,FATA,32.998009,70.033211,10/13/2011,2011,6
Close to Miram Shah,North Waziristan,FATA,32.989372,70.058098,10/14/2011,2011,4
"Angoor Adda, Bhangar area",South Waziristan,FATA,32.460228,69.260246,10/15/2011,2011,6
Bobar,North Waziristan,FATA,33.1344,70.4512,10/26/2011,2011,13
"Azam Warsak, 12 miles west of Wana",South Waziristan,FATA,32.327763,69.436302,10/27/2011,2011,6
Mir Ali,North Waziristan,FATA,32.5808,70.1637,10/27/2011,2011,5
Datta Khel,North Waziristan,FATA,32.963783,70.240593,10/30/2011,2011,6
Mubarak Shan near Miranshah,North Waziristan,FATA,32.987213,70.084877,10/31/2011,2011,4
Darpa Khel Sarai,North Waziristan,FATA,32.5917,70.0317,11/03/2011,2011,3
Miranshah,North Waziristan,FATA,32.996284,70.074921,11/15/2011,2011,7
Babar Ghar,South Waziristan,FATA,32.3914,70.1126,11/16/2011,2011,22
Shawal,North Waziristan,FATA,32.3649,69.3029,11/17/2011,2011,7
Miranshah,North Waziristan,FATA,32.997147,70.046082,01/10/2012,2012,4
New Aadda (outside Miranshah),North Waziristan,FATA,32.976414,69.719238,1/13/2012,2012,8
Degan,North Waziristan,FATA,32.981022,69.785156,1/23/2012,2012,5
Spalga,North Waziristan,FATA,33.052414,70.19165,02/08/2012,2012,10
Miranshah,North Waziristan,FATA,33.001755,70.073547,02/09/2012,2012,8
Spalga,North Waziristan,FATA,33.043205,70.188904,2/16/2012,2012,6
Mir Ali,North Waziristan,FATA,33.017876,70.254822,2/16/2012,2012,15
Makin,South Waziristan,FATA,32.79882,69.507751,03/09/2012,2012,13
Nishpa,South Waziristan,FATA,31.840233,70.037842,03/09/2012,2012,6
Uthghalai,South Waziristan,FATA,32.583851,69.483032,3/13/2012,2012,7
Tehsil Bermal,North Waziristan,FATA,32.874973,69.614868,3/13/2012,2012,8
Miranshah,North Waziristan,FATA,33.031693,70.169678,3/30/2012,2012,4
Miranshah,North Waziristan,FATA,33.008663,70.197144,4/29/2012,2012,6
Shawal,North Waziristan,FATA,32.884201,69.598389,05/05/2012,2012,10
Datta Khel Kalai,North Waziristan,FATA,32.906685,69.754257,5/23/2012,2012,4
Mir Ali,North Waziristan,FATA,33.036297,70.268555,5/24/2012,2012,10
Miranshah,North Waziristan,FATA,32.981022,70.037842,5/26/2012,2012,4
Hassokhel (Hassu Khel),North Waziristan,FATA,32.5715,70.1548,5/28/2012,2012,4
Datta Khel,North Waziristan,FATA,32.5418,69.4455,5/28/2012,2012,8
Khawashi Khel,South Waziristan,FATA,32.280167,69.554443,06/02/2012,2012,4
Wacha Dana,South Waziristan,FATA,32.306866,69.446465,06/03/2012,2012,10
Hassokhel,North Waziristan,FATA,32.97411,70.279541,06/04/2012,2012,15
Isha,North Waziristan,FATA,33.004704,70.067268,06/12/2012,2012,4
Miranshah,North Waziristan,FATA,33.005211,70.069847,6/14/2012,2012,4
Shawal,North Waziristan,FATA,32.712776,69.608345,6/26/2012,2012,6
Dre Nishtar Village,North Waziristan,FATA,32.713356,69.608688,07/01/2012,2012,8
Datta Khel village,North Waziristan,FATA,32.906975,69.758377,07/06/2012,2012,21
Shawal,North Waziristan,FATA,32.715954,69.610062,7/23/2012,2012,14
Khushhali Turikhel,North Waziristan,FATA,33.005783,70.246178,7/29/2012,2012,7
Shwedar,North Waziristan,FATA,32.713356,69.608688,8/18/2012,2012,12
Mana,North Waziristan,FATA,32.713932,69.612122,8/19/2012,2012,7
Mana,North Waziristan,FATA,32.71162,69.609375,8/19/2012,2012,3
"Shanakhora, 12 miles west of Miram Shah",North Waziristan,FATA,33.010967,69.831848,8/21/2012,2012,9
Darray Nashtar,North Waziristan,FATA,32.71711,69.616043,8/24/2012,2012,6
Darray Nashtar,North Waziristan,FATA,32.71711,69.616043,8/24/2012,2012,6
Darray Nashtar,North Waziristan,FATA,32.71711,69.616043,8/24/2012,2012,6
Degan,North Waziristan,FATA,32.715668,69.452019,09/01/2012,2012,6
Datta Khel,North Waziristan,FATA,32.905102,69.752785,9/22/2012,2012,4
Datta Khel,North Waziristan,FATA,32.905102,69.752785,9/24/2012,2012,6
"Khaider Kel, Mir Ali",North Waziristan,FATA,32.948757,70.313774,10/01/2012,2012,3
"Hurmuz, east of Miranshah",North Waziristan,FATA,32.991604,70.165199,10/10/2012,2012,5
Bulandkhel,Orakzai,FATA,33.620338,70.750351,10/11/2012,2012,26
Tappi,North Waziristan,FATA,32.947029,70.146835,10/24/2012,2012,5
Sheen Warsak,South Waziristan,FATA,32.243587,69.510155,11/29/2012,2012,7
Sheen Warsak,South Waziristan,FATA,32.241844,69.512215,12/01/2012,2012,4
Mubarak Shahi,North Waziristan,FATA,32.954807,70.168304,12/06/2012,2012,3
Hisukhel,North Waziristan,FATA,32.962585,70.243149,12/21/2012,2012,4
Gurbuz,North Waziristan,FATA,32.713066,69.616074,12/28/2012,2012,4
Angoor Adda,South Waziristan,FATA,32.49007,69.320297,01/02/2013,2013,11
Between Miran Shah and Mir Ali,North Waziristan,FATA,32.98822,70.209503,01/03/2013,2013,6
Babar Ghar,South Waziristan,FATA,32.658455,70.179977,01/06/2013,2013,17
Mir Ali,North Waziristan,FATA,32.971191,70.277908,01/08/2013,2013,5
Essokhel,North Waziristan,FATA,32.953693,70.262802,01/08/2013,2013,3
Heso Khel,North Waziristan,FATA,32.953331,70.262459,01/10/2013,2013,5
Spin Wam,North Waziristan,FATA,33.168594,70.401077,02/06/2013,2013,5
Babar Ghar,South Waziristan,FATA,32.65065,70.185471,02/08/2013,2013,9
Muhammad Khel,North Waziristan,FATA,32.5725,69.5306,03/10/2013,2013,2
Datta Khel,North Waziristan,FATA,32.5418,69.4455,3/22/2013,2013,4
"Manzar Khel, Datta Khel",North Waziristan,FATA,32.90429877,69.74872109,4/14/2013,2013,4
Sararogha,South Waziristan,FATA,32.53805827,69.97741696,4/17/2013,2013,5
Miranshah,North Waziristan,FATA,33.00034982,70.06736752,5/29/2013,2013,7
Mangroti,North Waziristan,FATA,32.62555094,69.49607846,06/07/2013,2013,7
Sarai Darpa Khel,North Waziristan,FATA,33.00538611,70.07612225,07/02/2013,2013,18
"Mosaki Village, Mir Ali",North Waziristan,FATA,32.96453082,70.27301785,7/13/2013,2013,2
"Shinkai Narai, Shawal",North Waziristan,FATA,33.01575629,70.01943108,7/28/2013,2013,8
Mir Ali,North Waziristan,FATA,32.96549398,70.26512143,8/31/2013,2013,4
"Dargah Mandi, Ghulam Khan",North Waziristan,FATA,33.24281527,70.22186276,09/06/2013,2013,6
Shawal,North Waziristan,FATA,33.01620273,69.97398373,9/22/2013,2013,7
"Dargamandi, Miran Shah",North Waziristan,FATA,33.02912948,70.02822873,9/29/2013,2013,6
"Mohammad Khel, Datta Khel",North Waziristan,FATA,33.00120462,70.0399017,9/30/2013,2013,4
Miran Shah,North Waziristan,FATA,32.99196335,70.04814145,10/31/2013,2013,3
"Dande Darpa Khel, Miran Shah",North Waziristan,FATA,33.01711136,70.06818291,11/01/2013,2013,7
Miran Shah,North Waziristan,FATA,32.99505888,70.06530758,11/29/2013,2013,3
"Qutab Khel, Miran Shah",North Waziristan,FATA,32.9869239,70.06959912,12/25/2013,2013,4
Dargah Mandi,North Waziristan,FATA,32.97201981,70.07080075,06/11/2014,2014,6
Miramshah,North Waziristan,Balochistan,32.99736246,70.07629391,06/12/2014,2014,10
Dandey Darpakhel,North Waziristan,FATA,32.96049802,69.98016354,6/18/2014,2014,5
Datta Khel,North Waziristan,FATA,33.0792263,69.91836544,07/10/2014,2014,6
Datta Khel,North Waziristan,FATA,33.05949283,69.9176788,7/16/2014,2014,20
Datta Khel,North Waziristan,FATA,33.02613758,69.94514462,7/19/2014,2014,15
Datta Khel,North Waziristan,FATA,33.04090313,69.98428341,08/06/2014,2014,6
Datta Khel,North Waziristan,FATA,33.04090313,69.98291012,9/24/2014,2014,10
Wana,South Waziristan,FATA,32.31963357,69.57092282,9/28/2014,2014,4
Shawal,South Waziristan,FATA,32.99795289,69.90394589,10/05/2014,2014,5
Shawal,North Waziristan,FATA,32.09064163,69.45831295,10/06/2014,2014,8
Datta Khel,North Waziristan,FATA,32.94195895,69.803009,10/07/2014,2014,7
Datta Khel,North Waziristan,FATA,32.96385443,69.81948849,10/07/2014,2014,4
Datta Khel,North Waziristan,FATA,32.92426655,69.74395749,10/09/2014,2014,4
Shawal Tehsil,North Waziristan,FATA,32.78669718,69.71923825,10/11/2014,2014,4
Tirah Valley,Khyber,FATA,33.7805579,70.6656106,10/11/2014,2014,4
Wana,South Waziristan,FATA,32.26332983,69.45281979,10/30/2014,2014,7
Datta Khel,North Waziristan,FATA,32.90611606,69.74464413,11/11/2014,2014,6
Mada Khel,North Waziristan,FATA,32.90676122,69.75133892,11/20/2014,2014,6
Datta Khel,North Waziristan,FATA,32.96840141,69.8483276,12/06/2014,2014,6
Datta Khel,North Waziristan,FATA,32.94656185,69.81536862,12/20/2014,2014,5
Shawal Valley,North Waziristan,FATA,33.00005289,69.92935177,12/26/2014,2014,9
Datta Khel,North Waziristan,FATA,33.00178048,69.94239804,01/04/2015,2015,8
Tehsil Ladha,South Waziristan,FATA,31.88016221,69.30587765,1/15/2015,2015,6
"Shawal Valley, North Waziristan",North Waziristan,FATA,32.75205508,69.57916256,1/29/2015,2015,7
"Shawal Valley, North Waziristan",FATA,,32.615148,69.51023,04/12/2015,2015,4
Shawal,North Waziristan,,32.614715,69.499587,5/16/2015,2015,5
Shawal,North Waziristan,,32.614715,69.499587,5/18/2015,2015,5
Shawal,North Waziristan,,32.6169196,69.4999301,06/01/2015,2015,4
Shawal,North Waziristan,,32.6169196,69.4999301,06/06/2015,2015,9
Datta Khel,North Waziristan,,32.905929,69.748292,08/06/2015,2015,7
Datta Khel,North Waziristan,,32.9056139,69.7482919,09/01/2015,2015,6
Mangrooti,North Waziristan,,32.704161,69.467315,01/09/2016,2016,5
Shahidano Dhand,Kurram,,33.6656971,70.6284736,2/22/2016,2016,4
Dahl Bandin,Balochistan,,28.948282,64.2718753,5/21/2016,2016,2
"Sara Khwa, Kurram Agency",South Waziristan,,32.2936111,70.1028113,03/02/2017,2017,2
Lawara Mandi,North Waziristan,,33.1440818,70.0212442,4/26/2017,2017,11
Hangu district,Khyber Punkhtunkhwa,,33.4271716,70.6062492,06/12/2017,2017,6
Marghalan,South Waziristan,,32.2399893,69.4364008,07/03/2017,2017,4
Ghuz Ghari,Kurram Agency,,33.7006204,70.171567,9/15/2017,2017,3
Maqbal,Kurram Agency,,33.6920485,70.0474217,10/16/2017,2017,20
Unclear,Kurram Agency,,33.6905281,69.7671562,11/30/2017,2017,4
"Mata Sangar, near Ghuzgarhi",Kurram Agency,,33.795036,69.9818372,12/26/2017,2017,3
Badshah Kot,Kurram Agency,,33.4616987,70.3628775,1/17/2018,2018,0
Speen Thal Dapa Mamuzai,Kurram Agency,,33.6901807,70.0272319,1/24/2018,2018,3
Gorwak,North Waziristan,,32.8453688,69.4870511,02/08/2018,2018,7
Gorwak,North Waziristan,,32.8453688,69.4870511,02/08/2018,2018,3
Tor Tangai,North Waziristan,,33.15,70.4333,07/04/2018,2018,2
